{
  "type": "FeatureCollection",
  "generator": "overpass-ide",
  "copyright": "The data included in this document is from www.openstreetmap.org. The data is made available under ODbL.",
  "timestamp": "2021-03-13T11:34:51Z",
  "features": [
    {
      "type": "Feature",
      "properties": {
        "@id": "way/31306096",
        "highway": "secondary",
        "name": "Jalan Pasar Baru",
        "oneway": "yes",
        "@geometry": "center"
      },
      "geometry": {
        "type": "Point",
        "coordinates": [
          100.3612639,
          -0.9485124
        ]
      },
      "id": "way/31306096"
    },
    {
      "type": "Feature",
      "properties": {
        "@id": "way/31307398",
        "highway": "secondary",
        "name": "Jalan Hayam Wuruk",
        "@geometry": "center"
      },
      "geometry": {
        "type": "Point",
        "coordinates": [
          100.3545716,
          -0.9591319
        ]
      },
      "id": "way/31307398"
    },
    {
      "type": "Feature",
      "properties": {
        "@id": "way/46578500",
        "highway": "trunk",
        "name": "Jalan Pemuda",
        "@geometry": "center"
      },
      "geometry": {
        "type": "Point",
        "coordinates": [
          100.3710868,
          -0.304264
        ]
      },
      "id": "way/46578500"
    },
    {
      "type": "Feature",
      "properties": {
        "@id": "way/46578505",
        "highway": "tertiary",
        "name": "Jalan Yos Sudarso",
        "@geometry": "center"
      },
      "geometry": {
        "type": "Point",
        "coordinates": [
          100.3670263,
          -0.302943
        ]
      },
      "id": "way/46578505"
    },
    {
      "type": "Feature",
      "properties": {
        "@id": "way/46578507",
        "highway": "secondary",
        "name": "Jalan Ahmad Karim",
        "@geometry": "center"
      },
      "geometry": {
        "type": "Point",
        "coordinates": [
          100.3681378,
          -0.3039883
        ]
      },
      "id": "way/46578507"
    },
    {
      "type": "Feature",
      "properties": {
        "@id": "way/46578511",
        "highway": "trunk",
        "name": "Jalan Medan",
        "@geometry": "center"
      },
      "geometry": {
        "type": "Point",
        "coordinates": [
          100.3505413,
          -0.2600276
        ]
      },
      "id": "way/46578511"
    },
    {
      "type": "Feature",
      "properties": {
        "@id": "way/47509369",
        "highway": "secondary",
        "name": "Jalan Pahlawan",
        "oneway": "no",
        "source": "GPS",
        "surface": "paved",
        "@geometry": "center"
      },
      "geometry": {
        "type": "Point",
        "coordinates": [
          100.6339669,
          -0.2412557
        ]
      },
      "id": "way/47509369"
    },
    {
      "type": "Feature",
      "properties": {
        "@id": "way/48058344",
        "highway": "primary",
        "lanes": "2",
        "name": "Jalan Profesor Dokter Hamka",
        "oneway": "yes",
        "source": "Bing",
        "@geometry": "center"
      },
      "geometry": {
        "type": "Point",
        "coordinates": [
          100.3509157,
          -0.9048878
        ]
      },
      "id": "way/48058344"
    },
    {
      "type": "Feature",
      "properties": {
        "@id": "way/48058345",
        "highway": "primary",
        "name": "Jalan M. Yamin",
        "oneway": "yes",
        "source": "digitalglobe",
        "@geometry": "center"
      },
      "geometry": {
        "type": "Point",
        "coordinates": [
          100.3577357,
          -0.9515697
        ]
      },
      "id": "way/48058345"
    },
    {
      "type": "Feature",
      "properties": {
        "@id": "way/48058346",
        "highway": "primary",
        "name": "Jalan Veteran",
        "source": "digitalglobe",
        "@geometry": "center"
      },
      "geometry": {
        "type": "Point",
        "coordinates": [
          100.3541186,
          -0.9377424
        ]
      },
      "id": "way/48058346"
    },
    {
      "type": "Feature",
      "properties": {
        "@id": "way/48085421",
        "highway": "primary",
        "name": "Jalan Muhammad Husni Thamrin",
        "source": "digitalglobe",
        "@geometry": "center"
      },
      "geometry": {
        "type": "Point",
        "coordinates": [
          100.3664824,
          -0.9548584
        ]
      },
      "id": "way/48085421"
    },
    {
      "type": "Feature",
      "properties": {
        "@id": "way/48085422",
        "highway": "primary",
        "lanes": "1",
        "name": "Jalan Imam Bonjol",
        "smoothness": "good",
        "source": "digitalglobe",
        "surface": "asphalt",
        "width": "10",
        "@geometry": "center"
      },
      "geometry": {
        "type": "Point",
        "coordinates": [
          100.361503,
          -0.9535837
        ]
      },
      "id": "way/48085422"
    },
    {
      "type": "Feature",
      "properties": {
        "@id": "way/48085423",
        "highway": "secondary",
        "lanes": "1",
        "name": "Jalan Niaga",
        "oneway": "yes",
        "smoothness": "good",
        "source": "digitalglobe",
        "surface": "asphalt",
        "width": "8",
        "@geometry": "center"
      },
      "geometry": {
        "type": "Point",
        "coordinates": [
          100.3612328,
          -0.9567957
        ]
      },
      "id": "way/48085423"
    },
    {
      "type": "Feature",
      "properties": {
        "@id": "way/48085424",
        "highway": "secondary",
        "lanes": "1",
        "name": "Jalan Kampung Nias",
        "oneway": "yes",
        "smoothness": "good",
        "source": "digitalglobe",
        "surface": "asphalt",
        "width": "6-8",
        "@geometry": "center"
      },
      "geometry": {
        "type": "Point",
        "coordinates": [
          100.3626723,
          -0.9599119
        ]
      },
      "id": "way/48085424"
    },
    {
      "type": "Feature",
      "properties": {
        "@id": "way/48086191",
        "highway": "tertiary",
        "name": "Jalan Nipah",
        "@geometry": "center"
      },
      "geometry": {
        "type": "Point",
        "coordinates": [
          100.3556397,
          -0.9619822
        ]
      },
      "id": "way/48086191"
    },
    {
      "type": "Feature",
      "properties": {
        "@id": "way/48086279",
        "highway": "primary",
        "lanes": "1",
        "name": "Jalan Bagindo Aziz Chan",
        "smoothness": "good",
        "source": "digitalglobe",
        "surface": "asphalt",
        "width": "12",
        "@geometry": "center"
      },
      "geometry": {
        "type": "Point",
        "coordinates": [
          100.3637497,
          -0.9529156
        ]
      },
      "id": "way/48086279"
    },
    {
      "type": "Feature",
      "properties": {
        "@id": "way/48086848",
        "highway": "primary",
        "name": "Jalan HOS Cokroaminoto",
        "source": "digitalglobe",
        "@geometry": "center"
      },
      "geometry": {
        "type": "Point",
        "coordinates": [
          100.3572565,
          -0.9599459
        ]
      },
      "id": "way/48086848"
    },
    {
      "type": "Feature",
      "properties": {
        "@id": "way/48087101",
        "highway": "tertiary",
        "name": "Jalan Ujung Gurun",
        "source": "digitalglobe",
        "@geometry": "center"
      },
      "geometry": {
        "type": "Point",
        "coordinates": [
          100.3550946,
          -0.9346128
        ]
      },
      "id": "way/48087101"
    },
    {
      "type": "Feature",
      "properties": {
        "@id": "way/48087884",
        "highway": "secondary",
        "name": "Jalan Hiligoo",
        "oneway": "yes",
        "source": "digitalglobe",
        "@geometry": "center"
      },
      "geometry": {
        "type": "Point",
        "coordinates": [
          100.360349,
          -0.9531093
        ]
      },
      "id": "way/48087884"
    },
    {
      "type": "Feature",
      "properties": {
        "@id": "way/49613463",
        "highway": "trunk",
        "name": "Jalan Lintas Sumatera",
        "source": "GPS",
        "@geometry": "center"
      },
      "geometry": {
        "type": "Point",
        "coordinates": [
          100.9088089,
          -0.7150121
        ]
      },
      "id": "way/49613463"
    },
    {
      "type": "Feature",
      "properties": {
        "@id": "way/49613550",
        "bridge": "yes",
        "highway": "trunk",
        "layer": "1",
        "name": "Lintas Sumatra",
        "short_name": "Jalinsum",
        "source": "GPS",
        "@geometry": "center"
      },
      "geometry": {
        "type": "Point",
        "coordinates": [
          101.7181691,
          -1.1334307
        ]
      },
      "id": "way/49613550"
    },
    {
      "type": "Feature",
      "properties": {
        "@id": "way/49613551",
        "highway": "trunk",
        "name": "Lintas Sumatra",
        "short_name": "Jalinsum",
        "source": "ESRI; Survei",
        "@geometry": "center"
      },
      "geometry": {
        "type": "Point",
        "coordinates": [
          101.6670945,
          -1.0723147
        ]
      },
      "id": "way/49613551"
    },
    {
      "type": "Feature",
      "properties": {
        "@id": "way/50736935",
        "bridge": "yes",
        "highway": "trunk",
        "layer": "1",
        "name": "Jembatan Ombilin",
        "@geometry": "center"
      },
      "geometry": {
        "type": "Point",
        "coordinates": [
          100.5507799,
          -0.5608198
        ]
      },
      "id": "way/50736935"
    },
    {
      "type": "Feature",
      "properties": {
        "@id": "way/50736939",
        "highway": "trunk",
        "name": "Lintas Sumatra",
        "short_name": "Jalinsum",
        "source": "GPS",
        "@geometry": "center"
      },
      "geometry": {
        "type": "Point",
        "coordinates": [
          101.728308,
          -1.1763745
        ]
      },
      "id": "way/50736939"
    },
    {
      "type": "Feature",
      "properties": {
        "@id": "way/53550628",
        "highway": "primary",
        "maxspeed": "70",
        "name": "Jalan Raya Sumbar - Riau",
        "oneway": "no",
        "@geometry": "center"
      },
      "geometry": {
        "type": "Point",
        "coordinates": [
          100.7249737,
          0.0033655
        ]
      },
      "id": "way/53550628"
    },
    {
      "type": "Feature",
      "properties": {
        "@id": "way/53550629",
        "highway": "trunk",
        "name": "Jalan Lintas Sumatera",
        "@geometry": "center"
      },
      "geometry": {
        "type": "Point",
        "coordinates": [
          100.7003493,
          -0.7736556
        ]
      },
      "id": "way/53550629"
    },
    {
      "type": "Feature",
      "properties": {
        "@id": "way/53550630",
        "bicycle": "dismount",
        "cycleway": "lane",
        "highway": "primary",
        "name": "Jalan Raya Bangkinang",
        "@geometry": "center"
      },
      "geometry": {
        "type": "Point",
        "coordinates": [
          100.6592175,
          -0.1679106
        ]
      },
      "id": "way/53550630"
    },
    {
      "type": "Feature",
      "properties": {
        "@id": "way/53550639",
        "highway": "primary",
        "name": "Jalan Raya Bangkinang",
        "@geometry": "center"
      },
      "geometry": {
        "type": "Point",
        "coordinates": [
          100.7753699,
          0.1913879
        ]
      },
      "id": "way/53550639"
    },
    {
      "type": "Feature",
      "properties": {
        "@id": "way/53550643",
        "highway": "primary",
        "maxspeed": "70",
        "name": "Jalan Raya Sumbar - Riau",
        "oneway": "no",
        "@geometry": "center"
      },
      "geometry": {
        "type": "Point",
        "coordinates": [
          100.747806,
          0.111464
        ]
      },
      "id": "way/53550643"
    },
    {
      "type": "Feature",
      "properties": {
        "@id": "way/53550647",
        "highway": "primary",
        "name": "Jalan Raya Bangkinang",
        "@geometry": "center"
      },
      "geometry": {
        "type": "Point",
        "coordinates": [
          100.7807488,
          0.2698547
        ]
      },
      "id": "way/53550647"
    },
    {
      "type": "Feature",
      "properties": {
        "@id": "way/55888990",
        "highway": "secondary",
        "lanes": "2",
        "name": "Jalan Gajah Mada",
        "source": "GPS",
        "@geometry": "center"
      },
      "geometry": {
        "type": "Point",
        "coordinates": [
          100.3653863,
          -0.911202
        ]
      },
      "id": "way/55888990"
    },
    {
      "type": "Feature",
      "properties": {
        "@id": "way/56214697",
        "highway": "trunk",
        "name": "Padang - Bukittinggi",
        "@geometry": "center"
      },
      "geometry": {
        "type": "Point",
        "coordinates": [
          100.2981745,
          -0.7063304
        ]
      },
      "id": "way/56214697"
    },
    {
      "type": "Feature",
      "properties": {
        "@id": "way/56214698",
        "bridge": "yes",
        "highway": "primary",
        "lanes": "2",
        "layer": "1",
        "name": "Jalan Profesor Dokter Hamka",
        "oneway": "yes",
        "@geometry": "center"
      },
      "geometry": {
        "type": "Point",
        "coordinates": [
          100.3506962,
          -0.9035347
        ]
      },
      "id": "way/56214698"
    },
    {
      "type": "Feature",
      "properties": {
        "@id": "way/56214701",
        "highway": "tertiary",
        "name": "Jalan Ikua Koto",
        "source": "GPS",
        "@geometry": "center"
      },
      "geometry": {
        "type": "Point",
        "coordinates": [
          100.3535213,
          -0.8573221
        ]
      },
      "id": "way/56214701"
    },
    {
      "type": "Feature",
      "properties": {
        "@id": "way/56395391",
        "highway": "primary",
        "name": "Jalan Jenderal Sudirman",
        "oneway": "yes",
        "source": "digitalglobe",
        "@geometry": "center"
      },
      "geometry": {
        "type": "Point",
        "coordinates": [
          100.3623289,
          -0.9450481
        ]
      },
      "id": "way/56395391"
    },
    {
      "type": "Feature",
      "properties": {
        "@id": "way/56395396",
        "highway": "tertiary",
        "name": "Jalan Salak",
        "source": "digitalglobe",
        "@geometry": "center"
      },
      "geometry": {
        "type": "Point",
        "coordinates": [
          100.357984,
          -0.9329129
        ]
      },
      "id": "way/56395396"
    },
    {
      "type": "Feature",
      "properties": {
        "@id": "way/56395401",
        "highway": "primary",
        "name": "Jalan Samudra",
        "oneway": "yes",
        "source": "GPS",
        "@geometry": "center"
      },
      "geometry": {
        "type": "Point",
        "coordinates": [
          100.3515015,
          -0.9411657
        ]
      },
      "id": "way/56395401"
    },
    {
      "type": "Feature",
      "properties": {
        "@id": "way/69836991",
        "highway": "tertiary",
        "name": "Jalan Lambung Bukit",
        "source": "GPS",
        "@geometry": "center"
      },
      "geometry": {
        "type": "Point",
        "coordinates": [
          100.411878,
          -0.9231508
        ]
      },
      "id": "way/69836991"
    },
    {
      "type": "Feature",
      "properties": {
        "@id": "way/69837000",
        "highway": "tertiary",
        "name": "Jalan Durian Tarung",
        "source": "GPS",
        "@geometry": "center"
      },
      "geometry": {
        "type": "Point",
        "coordinates": [
          100.4074044,
          -0.92783
        ]
      },
      "id": "way/69837000"
    },
    {
      "type": "Feature",
      "properties": {
        "@id": "way/99350055",
        "highway": "secondary",
        "name": "Jalan By Pass Aur Kuniang",
        "oneway": "yes",
        "source": "GPS",
        "surface": "asphalt",
        "@geometry": "center"
      },
      "geometry": {
        "type": "Point",
        "coordinates": [
          100.3808583,
          -0.3007874
        ]
      },
      "id": "way/99350055"
    },
    {
      "type": "Feature",
      "properties": {
        "@id": "way/121380915",
        "highway": "tertiary",
        "name": "Jalan Pulau Karam",
        "@geometry": "center"
      },
      "geometry": {
        "type": "Point",
        "coordinates": [
          100.3606486,
          -0.9596437
        ]
      },
      "id": "way/121380915"
    },
    {
      "type": "Feature",
      "properties": {
        "@id": "way/121380919",
        "highway": "tertiary",
        "name": "Jalan Kampung Dobi",
        "source": "digitalglobe",
        "@geometry": "center"
      },
      "geometry": {
        "type": "Point",
        "coordinates": [
          100.3574037,
          -0.9612972
        ]
      },
      "id": "way/121380919"
    },
    {
      "type": "Feature",
      "properties": {
        "@id": "way/121380923",
        "highway": "tertiary",
        "name": "Jalan Robert Wolter Monginsidi",
        "@geometry": "center"
      },
      "geometry": {
        "type": "Point",
        "coordinates": [
          100.3543879,
          -0.9568551
        ]
      },
      "id": "way/121380923"
    },
    {
      "type": "Feature",
      "properties": {
        "@id": "way/121380925",
        "highway": "tertiary",
        "name": "Jalan Ujung Belakang Olo",
        "@geometry": "center"
      },
      "geometry": {
        "type": "Point",
        "coordinates": [
          100.3523837,
          -0.9461231
        ]
      },
      "id": "way/121380925"
    },
    {
      "type": "Feature",
      "properties": {
        "@id": "way/121380926",
        "highway": "tertiary",
        "name": "Jalan Nipah",
        "oneway": "yes",
        "@geometry": "center"
      },
      "geometry": {
        "type": "Point",
        "coordinates": [
          100.3579365,
          -0.9639828
        ]
      },
      "id": "way/121380926"
    },
    {
      "type": "Feature",
      "properties": {
        "@id": "way/121380929",
        "bridge": "yes",
        "highway": "tertiary",
        "layer": "1",
        "name": "Jalan Nipah",
        "source": "digitalglobe",
        "@geometry": "center"
      },
      "geometry": {
        "type": "Point",
        "coordinates": [
          100.3583467,
          -0.9646918
        ]
      },
      "id": "way/121380929"
    },
    {
      "type": "Feature",
      "properties": {
        "@id": "way/121380931",
        "highway": "tertiary",
        "name": "Jalan Tepipasang",
        "oneway": "yes",
        "@geometry": "center"
      },
      "geometry": {
        "type": "Point",
        "coordinates": [
          100.3611095,
          -0.9583567
        ]
      },
      "id": "way/121380931"
    },
    {
      "type": "Feature",
      "properties": {
        "@id": "way/121380932",
        "highway": "secondary",
        "name": "Jalan Gereja",
        "oneway": "yes",
        "source": "digitalglobe",
        "@geometry": "center"
      },
      "geometry": {
        "type": "Point",
        "coordinates": [
          100.3600099,
          -0.9547376
        ]
      },
      "id": "way/121380932"
    },
    {
      "type": "Feature",
      "properties": {
        "@id": "way/121380933",
        "highway": "primary",
        "name": "Jalan Hang Tuah",
        "@geometry": "center"
      },
      "geometry": {
        "type": "Point",
        "coordinates": [
          100.3539102,
          -0.9518936
        ]
      },
      "id": "way/121380933"
    },
    {
      "type": "Feature",
      "properties": {
        "@id": "way/121380936",
        "highway": "tertiary",
        "name": "Jalan Khairil Anwar",
        "oneway": "yes",
        "@geometry": "center"
      },
      "geometry": {
        "type": "Point",
        "coordinates": [
          100.356277,
          -0.9551073
        ]
      },
      "id": "way/121380936"
    },
    {
      "type": "Feature",
      "properties": {
        "@id": "way/121380937",
        "highway": "tertiary",
        "name": "Jalan Nipah",
        "source": "digitalglobe",
        "@geometry": "center"
      },
      "geometry": {
        "type": "Point",
        "coordinates": [
          100.3597172,
          -0.9657859
        ]
      },
      "id": "way/121380937"
    },
    {
      "type": "Feature",
      "properties": {
        "@id": "way/121380938",
        "highway": "tertiary",
        "name": "Jalan Koto Marapak",
        "@geometry": "center"
      },
      "geometry": {
        "type": "Point",
        "coordinates": [
          100.3533389,
          -0.9468727
        ]
      },
      "id": "way/121380938"
    },
    {
      "type": "Feature",
      "properties": {
        "@id": "way/121380940",
        "highway": "secondary",
        "name": "Jalan Batang Arau",
        "@geometry": "center"
      },
      "geometry": {
        "type": "Point",
        "coordinates": [
          100.3520326,
          -0.964525
        ]
      },
      "id": "way/121380940"
    },
    {
      "type": "Feature",
      "properties": {
        "@id": "way/121380942",
        "highway": "tertiary",
        "name": "Jalan Nipah",
        "oneway": "yes",
        "@geometry": "center"
      },
      "geometry": {
        "type": "Point",
        "coordinates": [
          100.3581207,
          -0.9639203
        ]
      },
      "id": "way/121380942"
    },
    {
      "type": "Feature",
      "properties": {
        "@id": "way/123423818",
        "highway": "primary",
        "lanes": "4",
        "name": "Jalan Raya Andalas",
        "@geometry": "center"
      },
      "geometry": {
        "type": "Point",
        "coordinates": [
          100.3860075,
          -0.9386141
        ]
      },
      "id": "way/123423818"
    },
    {
      "type": "Feature",
      "properties": {
        "@id": "way/123431986",
        "bridge": "yes",
        "highway": "trunk_link",
        "lanes": "2",
        "layer": "1",
        "name": "Jalan Bypass",
        "oneway": "yes",
        "@geometry": "center"
      },
      "geometry": {
        "type": "Point",
        "coordinates": [
          100.397811,
          -0.9221578
        ]
      },
      "id": "way/123431986"
    },
    {
      "type": "Feature",
      "properties": {
        "@id": "way/123431988",
        "highway": "trunk",
        "lanes": "2",
        "name": "Jalan Bypass",
        "oneway": "yes",
        "@geometry": "center"
      },
      "geometry": {
        "type": "Point",
        "coordinates": [
          100.3990831,
          -0.9341149
        ]
      },
      "id": "way/123431988"
    },
    {
      "type": "Feature",
      "properties": {
        "@id": "way/123432168",
        "highway": "tertiary",
        "lanes": "1",
        "name": "Jalan Raya Kalumbuk",
        "smoothness": "good",
        "surface": "asphalt",
        "width": "5",
        "@geometry": "center"
      },
      "geometry": {
        "type": "Point",
        "coordinates": [
          100.39054,
          -0.9179547
        ]
      },
      "id": "way/123432168"
    },
    {
      "type": "Feature",
      "properties": {
        "@id": "way/124983609",
        "highway": "secondary",
        "name": "Kelok 44",
        "@geometry": "center"
      },
      "geometry": {
        "type": "Point",
        "coordinates": [
          100.2295091,
          -0.3004061
        ]
      },
      "id": "way/124983609"
    },
    {
      "type": "Feature",
      "properties": {
        "@id": "way/130608216",
        "highway": "tertiary",
        "name": "Jalan Banjaran",
        "source": "digitalglobe",
        "@geometry": "center"
      },
      "geometry": {
        "type": "Point",
        "coordinates": [
          100.3815526,
          -0.9625772
        ]
      },
      "id": "way/130608216"
    },
    {
      "type": "Feature",
      "properties": {
        "@id": "way/130666437",
        "highway": "secondary",
        "lanes": "1",
        "name": "Jalan Joni Anwar",
        "smoothness": "good",
        "source": "digitalglobe",
        "surface": "asphalt",
        "width": "8",
        "@geometry": "center"
      },
      "geometry": {
        "type": "Point",
        "coordinates": [
          100.3591131,
          -0.9042738
        ]
      },
      "id": "way/130666437"
    },
    {
      "type": "Feature",
      "properties": {
        "@id": "way/130710042",
        "bridge": "yes",
        "highway": "primary",
        "lanes": "2",
        "layer": "1",
        "name": "Jalan Profesor Dokter Hamka",
        "oneway": "yes",
        "@geometry": "center"
      },
      "geometry": {
        "type": "Point",
        "coordinates": [
          100.3508335,
          -0.9034862
        ]
      },
      "id": "way/130710042"
    },
    {
      "type": "Feature",
      "properties": {
        "@id": "way/130710425",
        "highway": "primary",
        "lanes": "2",
        "name": "Jalan Profesor Dokter Hamka",
        "oneway": "yes",
        "source": "Bing",
        "@geometry": "center"
      },
      "geometry": {
        "type": "Point",
        "coordinates": [
          100.3510452,
          -0.9048513
        ]
      },
      "id": "way/130710425"
    },
    {
      "type": "Feature",
      "properties": {
        "@id": "way/130710426",
        "highway": "primary",
        "lanes": "2",
        "name": "Jalan Profesor Dokter Hamka",
        "oneway": "yes",
        "@geometry": "center"
      },
      "geometry": {
        "type": "Point",
        "coordinates": [
          100.3523373,
          -0.8949519
        ]
      },
      "id": "way/130710426"
    },
    {
      "type": "Feature",
      "properties": {
        "@id": "way/130850954",
        "highway": "tertiary",
        "maxspeed": "30",
        "name": "Jalan Tunggul Hitam",
        "oneway": "no",
        "source": "HOT_imagery",
        "@geometry": "center"
      },
      "geometry": {
        "type": "Point",
        "coordinates": [
          100.3564315,
          -0.8903364
        ]
      },
      "id": "way/130850954"
    },
    {
      "type": "Feature",
      "properties": {
        "@id": "way/131821071",
        "highway": "tertiary",
        "name": "Jalan Nipah Teluk Bayur",
        "@geometry": "center"
      },
      "geometry": {
        "type": "Point",
        "coordinates": [
          100.3587704,
          -0.977462
        ]
      },
      "id": "way/131821071"
    },
    {
      "type": "Feature",
      "properties": {
        "@id": "way/132348342",
        "highway": "secondary",
        "name": "Jalan Raya Kurau",
        "source": "GPS",
        "@geometry": "center"
      },
      "geometry": {
        "type": "Point",
        "coordinates": [
          100.3662854,
          -0.8918312
        ]
      },
      "id": "way/132348342"
    },
    {
      "type": "Feature",
      "properties": {
        "@id": "way/132348344",
        "highway": "tertiary",
        "name": "Jalan Perjuangan",
        "@geometry": "center"
      },
      "geometry": {
        "type": "Point",
        "coordinates": [
          100.3644347,
          -0.8895611
        ]
      },
      "id": "way/132348344"
    },
    {
      "type": "Feature",
      "properties": {
        "@id": "way/132348381",
        "highway": "secondary",
        "name": "Jalan Raya Kurau",
        "oneway": "yes",
        "source": "GPS",
        "@geometry": "center"
      },
      "geometry": {
        "type": "Point",
        "coordinates": [
          100.3632605,
          -0.894905
        ]
      },
      "id": "way/132348381"
    },
    {
      "type": "Feature",
      "properties": {
        "@id": "way/133898297",
        "highway": "secondary",
        "name": "Jalan Raya Siteba",
        "source": "digitalglobe",
        "@geometry": "center"
      },
      "geometry": {
        "type": "Point",
        "coordinates": [
          100.3679173,
          -0.8975295
        ]
      },
      "id": "way/133898297"
    },
    {
      "type": "Feature",
      "properties": {
        "@id": "way/135422663",
        "highway": "secondary",
        "name": "Jalan Raya Kurau",
        "source": "GPS",
        "@geometry": "center"
      },
      "geometry": {
        "type": "Point",
        "coordinates": [
          100.3708167,
          -0.8868725
        ]
      },
      "id": "way/135422663"
    },
    {
      "type": "Feature",
      "properties": {
        "@id": "way/136263724",
        "addr:city": "Padang",
        "addr:street": "Jln. Pisang",
        "highway": "tertiary",
        "lanes": "2",
        "name": "Jalan Pisang",
        "oneway": "no",
        "postal_code": "25000",
        "source": "digitalglobe",
        "@geometry": "center"
      },
      "geometry": {
        "type": "Point",
        "coordinates": [
          100.4203763,
          -0.9352981
        ]
      },
      "id": "way/136263724"
    },
    {
      "type": "Feature",
      "properties": {
        "@id": "way/137390310",
        "highway": "tertiary",
        "lanes": "2",
        "name": "Jalan Syech Burhanuddin",
        "@geometry": "center"
      },
      "geometry": {
        "type": "Point",
        "coordinates": [
          100.2037816,
          -0.6650488
        ]
      },
      "id": "way/137390310"
    },
    {
      "type": "Feature",
      "properties": {
        "@id": "way/140350065",
        "highway": "secondary",
        "layer": "1",
        "name": "Jalan Garun Lawas",
        "source": "digitalglobe",
        "@geometry": "center"
      },
      "geometry": {
        "type": "Point",
        "coordinates": [
          100.3911721,
          -0.9720929
        ]
      },
      "id": "way/140350065"
    },
    {
      "type": "Feature",
      "properties": {
        "@id": "way/140501323",
        "access": "yes",
        "bridge": "yes",
        "highway": "trunk",
        "layer": "1",
        "name": "Jalan Bypass",
        "oneway": "yes",
        "source": "bing",
        "@geometry": "center"
      },
      "geometry": {
        "type": "Point",
        "coordinates": [
          100.3948205,
          -0.8925709
        ]
      },
      "id": "way/140501323"
    },
    {
      "type": "Feature",
      "properties": {
        "@id": "way/140594094",
        "highway": "secondary",
        "name": "Jalan Batang Arau",
        "source": "digitalglobe",
        "@geometry": "center"
      },
      "geometry": {
        "type": "Point",
        "coordinates": [
          100.3557085,
          -0.9652011
        ]
      },
      "id": "way/140594094"
    },
    {
      "type": "Feature",
      "properties": {
        "@id": "way/140594095",
        "bridge": "yes",
        "highway": "secondary",
        "layer": "1",
        "name": "Jalan Batang Arau",
        "source": "bing",
        "@geometry": "center"
      },
      "geometry": {
        "type": "Point",
        "coordinates": [
          100.3521951,
          -0.9648605
        ]
      },
      "id": "way/140594095"
    },
    {
      "type": "Feature",
      "properties": {
        "@id": "way/140698545",
        "highway": "tertiary",
        "name": "Jalan Rajawali",
        "@geometry": "center"
      },
      "geometry": {
        "type": "Point",
        "coordinates": [
          100.3730745,
          -0.9356332
        ]
      },
      "id": "way/140698545"
    },
    {
      "type": "Feature",
      "properties": {
        "@id": "way/140698548",
        "highway": "tertiary",
        "name": "Jalan Azizi",
        "@geometry": "center"
      },
      "geometry": {
        "type": "Point",
        "coordinates": [
          100.3783639,
          -0.9397968
        ]
      },
      "id": "way/140698548"
    },
    {
      "type": "Feature",
      "properties": {
        "@id": "way/140712586",
        "highway": "primary",
        "lanes": "2",
        "name": "Jalan Raya Andalas",
        "oneway": "yes",
        "@geometry": "center"
      },
      "geometry": {
        "type": "Point",
        "coordinates": [
          100.3799206,
          -0.9420975
        ]
      },
      "id": "way/140712586"
    },
    {
      "type": "Feature",
      "properties": {
        "@id": "way/140712589",
        "highway": "primary",
        "lanes": "2",
        "name": "Jalan Raya Andalas",
        "oneway": "yes",
        "@geometry": "center"
      },
      "geometry": {
        "type": "Point",
        "coordinates": [
          100.3813676,
          -0.9413481
        ]
      },
      "id": "way/140712589"
    },
    {
      "type": "Feature",
      "properties": {
        "@id": "way/140720736",
        "highway": "secondary",
        "name": "Jalan Proklamasi",
        "oneway": "no",
        "@geometry": "center"
      },
      "geometry": {
        "type": "Point",
        "coordinates": [
          100.365781,
          -0.9509545
        ]
      },
      "id": "way/140720736"
    },
    {
      "type": "Feature",
      "properties": {
        "@id": "way/140733481",
        "highway": "secondary",
        "name": "Jalan Perintis Kemerdekaan",
        "oneway": "no",
        "@geometry": "center"
      },
      "geometry": {
        "type": "Point",
        "coordinates": [
          100.3662655,
          -0.9408951
        ]
      },
      "id": "way/140733481"
    },
    {
      "type": "Feature",
      "properties": {
        "@id": "way/140772176",
        "highway": "secondary",
        "name": "Jalan Pasar Malintang",
        "source": "digitalglobe",
        "@geometry": "center"
      },
      "geometry": {
        "type": "Point",
        "coordinates": [
          100.3646883,
          -0.9584855
        ]
      },
      "id": "way/140772176"
    },
    {
      "type": "Feature",
      "properties": {
        "@id": "way/140772179",
        "highway": "primary",
        "name": "Jalan Thamrin",
        "source": "digitalglobe",
        "@geometry": "center"
      },
      "geometry": {
        "type": "Point",
        "coordinates": [
          100.3633736,
          -0.9557173
        ]
      },
      "id": "way/140772179"
    },
    {
      "type": "Feature",
      "properties": {
        "@id": "way/140772180",
        "highway": "secondary",
        "name": "Jalan Pasar Batipuh",
        "source": "digitalglobe",
        "@geometry": "center"
      },
      "geometry": {
        "type": "Point",
        "coordinates": [
          100.3645936,
          -0.9608117
        ]
      },
      "id": "way/140772180"
    },
    {
      "type": "Feature",
      "properties": {
        "@id": "way/140778568",
        "highway": "secondary",
        "name": "Jalan Pasar Mudik",
        "source": "digitalglobe",
        "@geometry": "center"
      },
      "geometry": {
        "type": "Point",
        "coordinates": [
          100.3688122,
          -0.9589445
        ]
      },
      "id": "way/140778568"
    },
    {
      "type": "Feature",
      "properties": {
        "@id": "way/140778570",
        "highway": "primary",
        "name": "Jalan Sutan Syahrir",
        "source": "digitalglobe",
        "@geometry": "center"
      },
      "geometry": {
        "type": "Point",
        "coordinates": [
          100.3769638,
          -0.9684381
        ]
      },
      "id": "way/140778570"
    },
    {
      "type": "Feature",
      "properties": {
        "@id": "way/140779155",
        "bridge": "yes",
        "highway": "primary",
        "layer": "1",
        "name": "Jalan Muhammad Husni Thamrin",
        "source": "digitalglobe",
        "@geometry": "center"
      },
      "geometry": {
        "type": "Point",
        "coordinates": [
          100.369238,
          -0.9557488
        ]
      },
      "id": "way/140779155"
    },
    {
      "type": "Feature",
      "properties": {
        "@id": "way/140779157",
        "highway": "primary",
        "name": "Jalan Muhammad Husni Thamrin",
        "source": "digitalglobe",
        "@geometry": "center"
      },
      "geometry": {
        "type": "Point",
        "coordinates": [
          100.370229,
          -0.9562873
        ]
      },
      "id": "way/140779157"
    },
    {
      "type": "Feature",
      "properties": {
        "@id": "way/140988618",
        "highway": "tertiary",
        "lanes": "1",
        "name": "Jalan Karya",
        "smoothness": "good",
        "source": "digitalglobe",
        "surface": "asphalt",
        "width": "6-8",
        "@geometry": "center"
      },
      "geometry": {
        "type": "Point",
        "coordinates": [
          100.3609463,
          -0.9545881
        ]
      },
      "id": "way/140988618"
    },
    {
      "type": "Feature",
      "properties": {
        "@id": "way/140990261",
        "highway": "secondary",
        "name": "Jalan Gereja",
        "@geometry": "center"
      },
      "geometry": {
        "type": "Point",
        "coordinates": [
          100.3572046,
          -0.9560577
        ]
      },
      "id": "way/140990261"
    },
    {
      "type": "Feature",
      "properties": {
        "@id": "way/140990262",
        "highway": "secondary",
        "name": "Jalan Bundo Kanduang",
        "oneway": "yes",
        "source": "digitalglobe",
        "@geometry": "center"
      },
      "geometry": {
        "type": "Point",
        "coordinates": [
          100.3596655,
          -0.9544409
        ]
      },
      "id": "way/140990262"
    },
    {
      "type": "Feature",
      "properties": {
        "@id": "way/140990264",
        "highway": "secondary",
        "name": "Jalan Bundo Kanduang",
        "oneway": "yes",
        "source": "digitalglobe",
        "@geometry": "center"
      },
      "geometry": {
        "type": "Point",
        "coordinates": [
          100.3597858,
          -0.9526825
        ]
      },
      "id": "way/140990264"
    },
    {
      "type": "Feature",
      "properties": {
        "@id": "way/140992884",
        "highway": "secondary",
        "name": "Jalan Batang Arau",
        "source": "digitalglobe",
        "@geometry": "center"
      },
      "geometry": {
        "type": "Point",
        "coordinates": [
          100.3592568,
          -0.9645407
        ]
      },
      "id": "way/140992884"
    },
    {
      "type": "Feature",
      "properties": {
        "@id": "way/140992885",
        "highway": "secondary",
        "name": "Jalan Batang Arau",
        "source": "digitalglobe",
        "@geometry": "center"
      },
      "geometry": {
        "type": "Point",
        "coordinates": [
          100.3610107,
          -0.9637964
        ]
      },
      "id": "way/140992885"
    },
    {
      "type": "Feature",
      "properties": {
        "@id": "way/140992886",
        "highway": "tertiary",
        "name": "Jalan Pulau Karam",
        "oneway": "yes",
        "@geometry": "center"
      },
      "geometry": {
        "type": "Point",
        "coordinates": [
          100.3588836,
          -0.9631116
        ]
      },
      "id": "way/140992886"
    },
    {
      "type": "Feature",
      "properties": {
        "@id": "way/140992887",
        "highway": "tertiary",
        "name": "Jalan Pulau Karam",
        "oneway": "yes",
        "@geometry": "center"
      },
      "geometry": {
        "type": "Point",
        "coordinates": [
          100.3585092,
          -0.9634838
        ]
      },
      "id": "way/140992887"
    },
    {
      "type": "Feature",
      "properties": {
        "@id": "way/141041071",
        "highway": "secondary",
        "lanes": "2",
        "name": "Jalan Dokter Soetomo",
        "oneway": "yes",
        "source": "digitalglobe",
        "@geometry": "center"
      },
      "geometry": {
        "type": "Point",
        "coordinates": [
          100.3837226,
          -0.9492428
        ]
      },
      "id": "way/141041071"
    },
    {
      "type": "Feature",
      "properties": {
        "@id": "way/141808651",
        "highway": "primary",
        "lanes": "4",
        "name": "Jalan Rasuna Said",
        "@geometry": "center"
      },
      "geometry": {
        "type": "Point",
        "coordinates": [
          100.3612826,
          -0.9290421
        ]
      },
      "id": "way/141808651"
    },
    {
      "type": "Feature",
      "properties": {
        "@id": "way/141808653",
        "highway": "secondary",
        "name": "Jalan K.H. Ahmad Dahlan",
        "oneway": "yes",
        "source": "DigitalGlobe",
        "@geometry": "center"
      },
      "geometry": {
        "type": "Point",
        "coordinates": [
          100.363665,
          -0.925533
        ]
      },
      "id": "way/141808653"
    },
    {
      "type": "Feature",
      "properties": {
        "@id": "way/141809008",
        "highway": "primary",
        "lanes": "2",
        "name": "Jalan Khatib Sulaiman",
        "oneway": "yes",
        "source": "DigitalGlobe",
        "@geometry": "center"
      },
      "geometry": {
        "type": "Point",
        "coordinates": [
          100.3604452,
          -0.9198381
        ]
      },
      "id": "way/141809008"
    },
    {
      "type": "Feature",
      "properties": {
        "@id": "way/142062119",
        "FIXME": "designated a Primary highway based on size and separation",
        "highway": "secondary",
        "lanes": "2",
        "name": "Jalan Raden Saleh",
        "oneway": "yes",
        "source": "digitalglobe",
        "@geometry": "center"
      },
      "geometry": {
        "type": "Point",
        "coordinates": [
          100.3569073,
          -0.9265777
        ]
      },
      "id": "way/142062119"
    },
    {
      "type": "Feature",
      "properties": {
        "@id": "way/142062121",
        "FIXME": "designated a Primary highway based on size and separation",
        "highway": "secondary",
        "lanes": "2",
        "name": "Jalan Raden Saleh",
        "oneway": "yes",
        "source": "digitalglobe",
        "@geometry": "center"
      },
      "geometry": {
        "type": "Point",
        "coordinates": [
          100.3578958,
          -0.9265545
        ]
      },
      "id": "way/142062121"
    },
    {
      "type": "Feature",
      "properties": {
        "@id": "way/142062123",
        "highway": "secondary",
        "lanes": "2",
        "name": "Jalan Raden Saleh",
        "oneway": "yes",
        "source": "GPS",
        "source2": "digitalglobe",
        "@geometry": "center"
      },
      "geometry": {
        "type": "Point",
        "coordinates": [
          100.3600718,
          -0.9262045
        ]
      },
      "id": "way/142062123"
    },
    {
      "type": "Feature",
      "properties": {
        "@id": "way/142413728",
        "highway": "tertiary",
        "name": "Jalan Pancasila",
        "source": "digitalglobe",
        "@geometry": "center"
      },
      "geometry": {
        "type": "Point",
        "coordinates": [
          100.3541309,
          -0.9542126
        ]
      },
      "id": "way/142413728"
    },
    {
      "type": "Feature",
      "properties": {
        "@id": "way/143293341",
        "highway": "primary",
        "name": "Jalan Padang - Painan",
        "@geometry": "center"
      },
      "geometry": {
        "type": "Point",
        "coordinates": [
          100.3831726,
          -0.9840767
        ]
      },
      "id": "way/143293341"
    },
    {
      "type": "Feature",
      "properties": {
        "@id": "way/143452142",
        "highway": "trunk",
        "lanes": "2",
        "name": "Jalan Raya Indarung",
        "oneway": "yes",
        "source": "digitalglobe",
        "@geometry": "center"
      },
      "geometry": {
        "type": "Point",
        "coordinates": [
          100.4065752,
          -0.9559585
        ]
      },
      "id": "way/143452142"
    },
    {
      "type": "Feature",
      "properties": {
        "@id": "way/143604853",
        "highway": "trunk",
        "lanes": "2",
        "name": "Jalan Raya Indarung",
        "oneway": "yes",
        "smoothness": "good",
        "source": "digitalglobe",
        "surface": "asphalt",
        "width": "23",
        "@geometry": "center"
      },
      "geometry": {
        "type": "Point",
        "coordinates": [
          100.4214493,
          -0.9522869
        ]
      },
      "id": "way/143604853"
    },
    {
      "type": "Feature",
      "properties": {
        "@id": "way/143769132",
        "highway": "trunk",
        "lanes": "2",
        "name": "Jalan Bypass",
        "oneway": "yes",
        "@geometry": "center"
      },
      "geometry": {
        "type": "Point",
        "coordinates": [
          100.4032079,
          -0.9572639
        ]
      },
      "id": "way/143769132"
    },
    {
      "type": "Feature",
      "properties": {
        "@id": "way/143769133",
        "highway": "trunk",
        "lanes": "2",
        "name": "Jalan Bypass",
        "oneway": "yes",
        "@geometry": "center"
      },
      "geometry": {
        "type": "Point",
        "coordinates": [
          100.399447,
          -0.969114
        ]
      },
      "id": "way/143769133"
    },
    {
      "type": "Feature",
      "properties": {
        "@id": "way/143769134",
        "highway": "trunk",
        "lanes": "2",
        "name": "Jalan Bypass",
        "oneway": "yes",
        "source": "digitalglobe",
        "@geometry": "center"
      },
      "geometry": {
        "type": "Point",
        "coordinates": [
          100.4036341,
          -0.9583058
        ]
      },
      "id": "way/143769134"
    },
    {
      "type": "Feature",
      "properties": {
        "@id": "way/143906203",
        "bridge": "yes",
        "highway": "tertiary",
        "layer": "1",
        "name": "Jalan Betung Tebal",
        "source": "digitalglobe",
        "@geometry": "center"
      },
      "geometry": {
        "type": "Point",
        "coordinates": [
          100.3995969,
          -0.9640099
        ]
      },
      "id": "way/143906203"
    },
    {
      "type": "Feature",
      "properties": {
        "@id": "way/143906204",
        "highway": "tertiary",
        "name": "Jalan Betung Tebal",
        "source": "digitalglobe",
        "@geometry": "center"
      },
      "geometry": {
        "type": "Point",
        "coordinates": [
          100.3968443,
          -0.964652
        ]
      },
      "id": "way/143906204"
    },
    {
      "type": "Feature",
      "properties": {
        "@id": "way/143906206",
        "highway": "secondary",
        "lanes": "2",
        "name": "Jalan Dokter Soetomo",
        "oneway": "yes",
        "source": "digitalglobe",
        "@geometry": "center"
      },
      "geometry": {
        "type": "Point",
        "coordinates": [
          100.3839519,
          -0.9495918
        ]
      },
      "id": "way/143906206"
    },
    {
      "type": "Feature",
      "properties": {
        "@id": "way/143906209",
        "highway": "trunk",
        "lanes": "2",
        "name": "Jalan Raya Indarung",
        "oneway": "yes",
        "source": "digitalglobe",
        "@geometry": "center"
      },
      "geometry": {
        "type": "Point",
        "coordinates": [
          100.4065583,
          -0.9558564
        ]
      },
      "id": "way/143906209"
    },
    {
      "type": "Feature",
      "properties": {
        "@id": "way/143906217",
        "highway": "secondary",
        "name": "Jalan Ujung Tanah",
        "oneway": "yes",
        "source": "digitalglobe",
        "@geometry": "center"
      },
      "geometry": {
        "type": "Point",
        "coordinates": [
          100.3986259,
          -0.9583992
        ]
      },
      "id": "way/143906217"
    },
    {
      "type": "Feature",
      "properties": {
        "@id": "way/143906221",
        "highway": "secondary",
        "lanes": "2",
        "name": "Jalan Ujung Tanah",
        "source": "digitalglobe",
        "@geometry": "center"
      },
      "geometry": {
        "type": "Point",
        "coordinates": [
          100.397078,
          -0.9597027
        ]
      },
      "id": "way/143906221"
    },
    {
      "type": "Feature",
      "properties": {
        "@id": "way/143906224",
        "highway": "secondary",
        "name": "Jalan Ujung Tanah",
        "oneway": "yes",
        "source": "digitalglobe",
        "@geometry": "center"
      },
      "geometry": {
        "type": "Point",
        "coordinates": [
          100.3987461,
          -0.9584767
        ]
      },
      "id": "way/143906224"
    },
    {
      "type": "Feature",
      "properties": {
        "@id": "way/144304812",
        "highway": "secondary",
        "name": "Jalan Air Camar",
        "source": "digitalglobe",
        "@geometry": "center"
      },
      "geometry": {
        "type": "Point",
        "coordinates": [
          100.3781427,
          -0.9545016
        ]
      },
      "id": "way/144304812"
    },
    {
      "type": "Feature",
      "properties": {
        "@id": "way/144304819",
        "bridge": "yes",
        "highway": "secondary",
        "layer": "1",
        "name": "Jalan Garun Lawas",
        "source": "digitalglobe",
        "@geometry": "center"
      },
      "geometry": {
        "type": "Point",
        "coordinates": [
          100.3948655,
          -0.9618935
        ]
      },
      "id": "way/144304819"
    },
    {
      "type": "Feature",
      "properties": {
        "@id": "way/145127309",
        "FIXME": "designated a Primary highway based on size and separation",
        "highway": "secondary",
        "lanes": "2",
        "name": "Jalan Raden Saleh",
        "oneway": "yes",
        "source": "digitalglobe",
        "@geometry": "center"
      },
      "geometry": {
        "type": "Point",
        "coordinates": [
          100.3531612,
          -0.9271054
        ]
      },
      "id": "way/145127309"
    },
    {
      "type": "Feature",
      "properties": {
        "@id": "way/145312613",
        "highway": "primary",
        "name": "Jalan S. Parman",
        "source": "digitalglobe",
        "@geometry": "center"
      },
      "geometry": {
        "type": "Point",
        "coordinates": [
          100.3506588,
          -0.9204296
        ]
      },
      "id": "way/145312613"
    },
    {
      "type": "Feature",
      "properties": {
        "@id": "way/146646131",
        "FIXME": "check bridge or culvert or ?",
        "bridge": "yes",
        "highway": "tertiary",
        "layer": "1",
        "name": "Jalan Samudera",
        "source": "bing",
        "@geometry": "center"
      },
      "geometry": {
        "type": "Point",
        "coordinates": [
          100.3530439,
          -0.9460022
        ]
      },
      "id": "way/146646131"
    },
    {
      "type": "Feature",
      "properties": {
        "@id": "way/146646137",
        "highway": "tertiary",
        "name": "Jalan Ujung Belakang Olo",
        "@geometry": "center"
      },
      "geometry": {
        "type": "Point",
        "coordinates": [
          100.3539049,
          -0.9458487
        ]
      },
      "id": "way/146646137"
    },
    {
      "type": "Feature",
      "properties": {
        "@id": "way/148579513",
        "bridge": "yes",
        "highway": "trunk",
        "lanes": "2",
        "layer": "1",
        "name": "Jalan Bypass",
        "oneway": "yes",
        "source": "bing",
        "@geometry": "center"
      },
      "geometry": {
        "type": "Point",
        "coordinates": [
          100.3940087,
          -0.9796506
        ]
      },
      "id": "way/148579513"
    },
    {
      "type": "Feature",
      "properties": {
        "@id": "way/148579514",
        "highway": "trunk",
        "lanes": "2",
        "name": "Jalan Bypass",
        "oneway": "yes",
        "source": "digitalglobe",
        "@geometry": "center"
      },
      "geometry": {
        "type": "Point",
        "coordinates": [
          100.3888224,
          -0.9839519
        ]
      },
      "id": "way/148579514"
    },
    {
      "type": "Feature",
      "properties": {
        "@id": "way/148579515",
        "highway": "secondary",
        "layer": "1",
        "name": "Jalan Garun Lawas",
        "source": "digitalglobe",
        "@geometry": "center"
      },
      "geometry": {
        "type": "Point",
        "coordinates": [
          100.3931841,
          -0.9662585
        ]
      },
      "id": "way/148579515"
    },
    {
      "type": "Feature",
      "properties": {
        "@id": "way/148579518",
        "highway": "secondary",
        "name": "Jalan Garun Lawas",
        "source": "digitalglobe",
        "@geometry": "center"
      },
      "geometry": {
        "type": "Point",
        "coordinates": [
          100.3913137,
          -0.9701581
        ]
      },
      "id": "way/148579518"
    },
    {
      "type": "Feature",
      "properties": {
        "@id": "way/148716406",
        "highway": "secondary",
        "name": "Jalan Perintis Kemerdekaan",
        "source": "GPS",
        "@geometry": "center"
      },
      "geometry": {
        "type": "Point",
        "coordinates": [
          100.3661628,
          -0.9345778
        ]
      },
      "id": "way/148716406"
    },
    {
      "type": "Feature",
      "properties": {
        "@id": "way/148716407",
        "highway": "secondary",
        "name": "Jalan K.H. Ahmad Dahlan",
        "oneway": "yes",
        "@geometry": "center"
      },
      "geometry": {
        "type": "Point",
        "coordinates": [
          100.3635711,
          -0.9256759
        ]
      },
      "id": "way/148716407"
    },
    {
      "type": "Feature",
      "properties": {
        "@id": "way/148716409",
        "highway": "primary",
        "lanes": "2",
        "name": "Jalan Khatib Sulaiman",
        "oneway": "yes",
        "@geometry": "center"
      },
      "geometry": {
        "type": "Point",
        "coordinates": [
          100.3612558,
          -0.9245815
        ]
      },
      "id": "way/148716409"
    },
    {
      "type": "Feature",
      "properties": {
        "@id": "way/148741421",
        "highway": "secondary",
        "lanes": "2",
        "name": "Jalan Kampus Unand Limau Manis",
        "oneway": "yes",
        "source": "GPS",
        "@geometry": "center"
      },
      "geometry": {
        "type": "Point",
        "coordinates": [
          100.4078616,
          -0.9325544
        ]
      },
      "id": "way/148741421"
    },
    {
      "type": "Feature",
      "properties": {
        "@id": "way/148741423",
        "highway": "secondary",
        "lanes": "2",
        "name": "Jalan Dokter M. Hatta",
        "oneway": "yes",
        "surface": "asphalt",
        "@geometry": "center"
      },
      "geometry": {
        "type": "Point",
        "coordinates": [
          100.4465977,
          -0.923355
        ]
      },
      "id": "way/148741423"
    },
    {
      "type": "Feature",
      "properties": {
        "@id": "way/148741424",
        "highway": "tertiary",
        "lanes": "1",
        "name": "Jalan Parak Karakah",
        "smoothness": "good",
        "source": "digitalglobe",
        "surface": "asphalt",
        "width": "5",
        "@geometry": "center"
      },
      "geometry": {
        "type": "Point",
        "coordinates": [
          100.3946865,
          -0.9492219
        ]
      },
      "id": "way/148741424"
    },
    {
      "type": "Feature",
      "properties": {
        "@id": "way/149197290",
        "highway": "secondary",
        "name": "Jalan Pasar Raya",
        "oneway": "yes",
        "@geometry": "center"
      },
      "geometry": {
        "type": "Point",
        "coordinates": [
          100.3599619,
          -0.9506321
        ]
      },
      "id": "way/149197290"
    },
    {
      "type": "Feature",
      "properties": {
        "@id": "way/149327394",
        "highway": "tertiary",
        "name": "Jalan PGAI",
        "oneway": "yes",
        "source": "digitalglobe",
        "@geometry": "center"
      },
      "geometry": {
        "type": "Point",
        "coordinates": [
          100.3650629,
          -0.9436008
        ]
      },
      "id": "way/149327394"
    },
    {
      "type": "Feature",
      "properties": {
        "@id": "way/149715265",
        "bridge": "yes",
        "highway": "primary",
        "lanes": "2",
        "layer": "1",
        "name": "Jalan Adinegoro",
        "oneway": "yes",
        "@geometry": "center"
      },
      "geometry": {
        "type": "Point",
        "coordinates": [
          100.3282185,
          -0.8374606
        ]
      },
      "id": "way/149715265"
    },
    {
      "type": "Feature",
      "properties": {
        "@id": "way/149715267",
        "bridge": "yes",
        "highway": "primary",
        "lanes": "2",
        "layer": "1",
        "maxspeed": "40",
        "name": "Jalan Adinegoro",
        "oneway": "yes",
        "surface": "asphalt",
        "@geometry": "center"
      },
      "geometry": {
        "type": "Point",
        "coordinates": [
          100.3159785,
          -0.8043768
        ]
      },
      "id": "way/149715267"
    },
    {
      "type": "Feature",
      "properties": {
        "@id": "way/149726560",
        "highway": "primary",
        "lanes": "2",
        "maxspeed": "40",
        "name": "Jalan Adinegoro",
        "oneway": "yes",
        "@geometry": "center"
      },
      "geometry": {
        "type": "Point",
        "coordinates": [
          100.3340671,
          -0.8492964
        ]
      },
      "id": "way/149726560"
    },
    {
      "type": "Feature",
      "properties": {
        "@id": "way/149726623",
        "bridge": "yes",
        "highway": "primary",
        "layer": "1",
        "maxspeed": "40",
        "name": "Jalan Adinegoro",
        "oneway": "yes",
        "surface": "asphalt",
        "@geometry": "center"
      },
      "geometry": {
        "type": "Point",
        "coordinates": [
          100.3400302,
          -0.861341
        ]
      },
      "id": "way/149726623"
    },
    {
      "type": "Feature",
      "properties": {
        "@id": "way/149726660",
        "highway": "primary",
        "lanes": "2",
        "maxspeed": "40",
        "name": "Jalan Adinegoro",
        "oneway": "yes",
        "surface": "asphalt",
        "@geometry": "center"
      },
      "geometry": {
        "type": "Point",
        "coordinates": [
          100.3420742,
          -0.8655141
        ]
      },
      "id": "way/149726660"
    },
    {
      "type": "Feature",
      "properties": {
        "@id": "way/149726693",
        "highway": "tertiary",
        "name": "Jalan Jaruai",
        "@geometry": "center"
      },
      "geometry": {
        "type": "Point",
        "coordinates": [
          100.41245,
          -1.027464
        ]
      },
      "id": "way/149726693"
    },
    {
      "type": "Feature",
      "properties": {
        "@id": "way/149728636",
        "highway": "primary",
        "name": "Jalan Kataping",
        "oneway": "no",
        "@geometry": "center"
      },
      "geometry": {
        "type": "Point",
        "coordinates": [
          100.2847088,
          -0.7760641
        ]
      },
      "id": "way/149728636"
    },
    {
      "type": "Feature",
      "properties": {
        "@id": "way/149739627",
        "bicycle": "yes",
        "cycleway": "no",
        "foot": "yes",
        "highway": "tertiary",
        "name": "Jalan Padang Sago - Pariaman",
        "oneway": "no",
        "sidewalk": "none",
        "surface": "asphalt",
        "@geometry": "center"
      },
      "geometry": {
        "type": "Point",
        "coordinates": [
          100.2001365,
          -0.5576698
        ]
      },
      "id": "way/149739627"
    },
    {
      "type": "Feature",
      "properties": {
        "@id": "way/150002350",
        "highway": "tertiary",
        "name": "Jalan Jawi-Jawi",
        "@geometry": "center"
      },
      "geometry": {
        "type": "Point",
        "coordinates": [
          100.1486909,
          -0.6104301
        ]
      },
      "id": "way/150002350"
    },
    {
      "type": "Feature",
      "properties": {
        "@id": "way/152238433",
        "highway": "tertiary",
        "name": "Jalan Bandar Purus",
        "source": "digitalglobe",
        "surface": "concrete",
        "@geometry": "center"
      },
      "geometry": {
        "type": "Point",
        "coordinates": [
          100.3571204,
          -0.9387594
        ]
      },
      "id": "way/152238433"
    },
    {
      "type": "Feature",
      "properties": {
        "@id": "way/153237974",
        "highway": "tertiary",
        "name": "Jalan Ujung Gurun",
        "source": "digitalglobe",
        "@geometry": "center"
      },
      "geometry": {
        "type": "Point",
        "coordinates": [
          100.3585377,
          -0.9344041
        ]
      },
      "id": "way/153237974"
    },
    {
      "type": "Feature",
      "properties": {
        "@id": "way/153237977",
        "bridge": "yes",
        "highway": "tertiary",
        "layer": "1",
        "name": "Jalan Ujung Gurun",
        "source": "digitalglobe",
        "@geometry": "center"
      },
      "geometry": {
        "type": "Point",
        "coordinates": [
          100.3557543,
          -0.9345533
        ]
      },
      "id": "way/153237977"
    },
    {
      "type": "Feature",
      "properties": {
        "@id": "way/156063421",
        "highway": "tertiary",
        "layer": "-1",
        "name": "Jalan Banjaran",
        "source": "digitalglobe",
        "@geometry": "center"
      },
      "geometry": {
        "type": "Point",
        "coordinates": [
          100.383444,
          -0.9622628
        ]
      },
      "id": "way/156063421"
    },
    {
      "type": "Feature",
      "properties": {
        "@id": "way/156063423",
        "highway": "tertiary",
        "layer": "-1",
        "name": "Jalan Banjaran",
        "source": "digitalglobe",
        "@geometry": "center"
      },
      "geometry": {
        "type": "Point",
        "coordinates": [
          100.3883857,
          -0.9649896
        ]
      },
      "id": "way/156063423"
    },
    {
      "type": "Feature",
      "properties": {
        "@id": "way/156761445",
        "access": "yes",
        "highway": "secondary",
        "name": "Jalan Permindo",
        "oneway": "yes",
        "@geometry": "center"
      },
      "geometry": {
        "type": "Point",
        "coordinates": [
          100.3594873,
          -0.9486518
        ]
      },
      "id": "way/156761445"
    },
    {
      "type": "Feature",
      "properties": {
        "@id": "way/156771435",
        "highway": "tertiary",
        "name": "Jalan Olo Ladang",
        "oneway": "no",
        "@geometry": "center"
      },
      "geometry": {
        "type": "Point",
        "coordinates": [
          100.3530115,
          -0.9431667
        ]
      },
      "id": "way/156771435"
    },
    {
      "type": "Feature",
      "properties": {
        "@id": "way/156775414",
        "highway": "tertiary",
        "name": "Jalan Purus 4",
        "@geometry": "center"
      },
      "geometry": {
        "type": "Point",
        "coordinates": [
          100.3513529,
          -0.9367295
        ]
      },
      "id": "way/156775414"
    },
    {
      "type": "Feature",
      "properties": {
        "@id": "way/156775611",
        "highway": "tertiary",
        "name": "Jalan Purus 5",
        "@geometry": "center"
      },
      "geometry": {
        "type": "Point",
        "coordinates": [
          100.3533377,
          -0.9347251
        ]
      },
      "id": "way/156775611"
    },
    {
      "type": "Feature",
      "properties": {
        "@id": "way/160491129",
        "bridge": "yes",
        "highway": "trunk",
        "lanes": "2",
        "layer": "1",
        "name": "Jalan Bypass",
        "oneway": "yes",
        "source": "bing",
        "@geometry": "center"
      },
      "geometry": {
        "type": "Point",
        "coordinates": [
          100.3940638,
          -0.9784664
        ]
      },
      "id": "way/160491129"
    },
    {
      "type": "Feature",
      "properties": {
        "@id": "way/160491133",
        "highway": "trunk",
        "lanes": "2",
        "name": "Jalan Bypass",
        "oneway": "yes",
        "source": "digitalglobe",
        "@geometry": "center"
      },
      "geometry": {
        "type": "Point",
        "coordinates": [
          100.3940396,
          -0.9791096
        ]
      },
      "id": "way/160491133"
    },
    {
      "type": "Feature",
      "properties": {
        "@id": "way/161019805",
        "highway": "tertiary",
        "name": "Jalan Tanjung Priok",
        "@geometry": "center"
      },
      "geometry": {
        "type": "Point",
        "coordinates": [
          100.3717577,
          -0.9973928
        ]
      },
      "id": "way/161019805"
    },
    {
      "type": "Feature",
      "properties": {
        "@id": "way/161019867",
        "highway": "tertiary",
        "name": "Jalan Tanjung Priok",
        "oneway": "yes",
        "@geometry": "center"
      },
      "geometry": {
        "type": "Point",
        "coordinates": [
          100.3790269,
          -0.9927808
        ]
      },
      "id": "way/161019867"
    },
    {
      "type": "Feature",
      "properties": {
        "@id": "way/161680382",
        "highway": "trunk",
        "name": "Jalan Padang - Painan",
        "@geometry": "center"
      },
      "geometry": {
        "type": "Point",
        "coordinates": [
          100.3893093,
          -1.0285447
        ]
      },
      "id": "way/161680382"
    },
    {
      "type": "Feature",
      "properties": {
        "@id": "way/161697119",
        "highway": "primary",
        "lanes": "2",
        "name": "Jalan Khatib Sulaiman",
        "oneway": "yes",
        "@geometry": "center"
      },
      "geometry": {
        "type": "Point",
        "coordinates": [
          100.3603479,
          -0.9198616
        ]
      },
      "id": "way/161697119"
    },
    {
      "type": "Feature",
      "properties": {
        "@id": "way/162135772",
        "highway": "tertiary",
        "name": "Jalan Tepi Bandar Kali",
        "source": "digitalglobe",
        "@geometry": "center"
      },
      "geometry": {
        "type": "Point",
        "coordinates": [
          100.3850663,
          -0.9486912
        ]
      },
      "id": "way/162135772"
    },
    {
      "type": "Feature",
      "properties": {
        "@id": "way/165598886",
        "highway": "secondary",
        "layer": "1",
        "name": "Jalan Garun Lawas",
        "source": "digitalglobe",
        "@geometry": "center"
      },
      "geometry": {
        "type": "Point",
        "coordinates": [
          100.3892008,
          -0.9595236
        ]
      },
      "id": "way/165598886"
    },
    {
      "type": "Feature",
      "properties": {
        "@id": "way/165598890",
        "highway": "secondary",
        "layer": "2",
        "name": "Jalan Ujung Tanah",
        "source": "digitalglobe",
        "@geometry": "center"
      },
      "geometry": {
        "type": "Point",
        "coordinates": [
          100.3948637,
          -0.9612527
        ]
      },
      "id": "way/165598890"
    },
    {
      "type": "Feature",
      "properties": {
        "@id": "way/167102305",
        "highway": "tertiary",
        "name": "Jalan Banjir Kanal",
        "@geometry": "center"
      },
      "geometry": {
        "type": "Point",
        "coordinates": [
          100.3667509,
          -0.9295286
        ]
      },
      "id": "way/167102305"
    },
    {
      "type": "Feature",
      "properties": {
        "@id": "way/167179278",
        "highway": "primary",
        "name": "Jalan Alahan Panjang",
        "@geometry": "center"
      },
      "geometry": {
        "type": "Point",
        "coordinates": [
          100.6771691,
          -1.0326425
        ]
      },
      "id": "way/167179278"
    },
    {
      "type": "Feature",
      "properties": {
        "@id": "way/167291953",
        "highway": "tertiary",
        "name": "Jalan Bale Hilir",
        "oneway": "no",
        "@geometry": "center"
      },
      "geometry": {
        "type": "Point",
        "coordinates": [
          100.2955559,
          -0.6637539
        ]
      },
      "id": "way/167291953"
    },
    {
      "type": "Feature",
      "properties": {
        "@id": "way/167295829",
        "highway": "tertiary",
        "name": "Jalan Mohammad Yamin",
        "@geometry": "center"
      },
      "geometry": {
        "type": "Point",
        "coordinates": [
          100.2854003,
          -0.6815081
        ]
      },
      "id": "way/167295829"
    },
    {
      "type": "Feature",
      "properties": {
        "@id": "way/168207249",
        "highway": "tertiary",
        "name": "Jalan Abdul Muis",
        "source": "digitalglobe",
        "surface": "asphalt",
        "@geometry": "center"
      },
      "geometry": {
        "type": "Point",
        "coordinates": [
          100.3639076,
          -0.9408794
        ]
      },
      "id": "way/168207249"
    },
    {
      "type": "Feature",
      "properties": {
        "@id": "way/170201975",
        "highway": "tertiary",
        "name": "Jalan Raya Tuapejat",
        "surface": "concrete",
        "@geometry": "center"
      },
      "geometry": {
        "type": "Point",
        "coordinates": [
          99.6035316,
          -2.0524748
        ]
      },
      "id": "way/170201975"
    },
    {
      "type": "Feature",
      "properties": {
        "@id": "way/181551757",
        "highway": "primary",
        "lanes": "2",
        "maxspeed": "40",
        "name": "Jalan Adinegoro",
        "oneway": "yes",
        "surface": "asphalt",
        "@geometry": "center"
      },
      "geometry": {
        "type": "Point",
        "coordinates": [
          100.3419717,
          -0.8655785
        ]
      },
      "id": "way/181551757"
    },
    {
      "type": "Feature",
      "properties": {
        "@id": "way/181551765",
        "bridge": "yes",
        "highway": "primary",
        "layer": "1",
        "maxspeed": "40",
        "name": "Jalan Adinegoro",
        "oneway": "yes",
        "source": "Bing",
        "surface": "asphalt",
        "@geometry": "center"
      },
      "geometry": {
        "type": "Point",
        "coordinates": [
          100.3399236,
          -0.861404
        ]
      },
      "id": "way/181551765"
    },
    {
      "type": "Feature",
      "properties": {
        "@id": "way/181690301",
        "highway": "trunk",
        "name": "Jalan Bypass",
        "oneway": "yes",
        "source": "digitalglobe",
        "@geometry": "center"
      },
      "geometry": {
        "type": "Point",
        "coordinates": [
          100.3503243,
          -0.8371033
        ]
      },
      "id": "way/181690301"
    },
    {
      "type": "Feature",
      "properties": {
        "@id": "way/181690302",
        "bridge": "yes",
        "highway": "trunk",
        "layer": "1",
        "name": "Jalan Bypass",
        "oneway": "yes",
        "source": "Bing",
        "@geometry": "center"
      },
      "geometry": {
        "type": "Point",
        "coordinates": [
          100.3615704,
          -0.8442284
        ]
      },
      "id": "way/181690302"
    },
    {
      "type": "Feature",
      "properties": {
        "@id": "way/181690341",
        "bridge": "yes",
        "highway": "trunk",
        "layer": "1",
        "name": "Jalan Bypass",
        "oneway": "yes",
        "source": "Bing",
        "@geometry": "center"
      },
      "geometry": {
        "type": "Point",
        "coordinates": [
          100.339259,
          -0.83018
        ]
      },
      "id": "way/181690341"
    },
    {
      "type": "Feature",
      "properties": {
        "@id": "way/181731683",
        "highway": "tertiary",
        "name": "Batang Tapakis - Padang Galapung",
        "oneway": "no",
        "@geometry": "center"
      },
      "geometry": {
        "type": "Point",
        "coordinates": [
          100.2900203,
          -0.6532511
        ]
      },
      "id": "way/181731683"
    },
    {
      "type": "Feature",
      "properties": {
        "@id": "way/181731684",
        "highway": "tertiary",
        "name": "Jalan Mohammad Yamin",
        "@geometry": "center"
      },
      "geometry": {
        "type": "Point",
        "coordinates": [
          100.2899868,
          -0.6794603
        ]
      },
      "id": "way/181731684"
    },
    {
      "type": "Feature",
      "properties": {
        "@id": "way/181731688",
        "bridge": "yes",
        "highway": "trunk",
        "layer": "1",
        "name": "Padang - Bukittinggi",
        "source": "Bing",
        "@geometry": "center"
      },
      "geometry": {
        "type": "Point",
        "coordinates": [
          100.2895046,
          -0.6756405
        ]
      },
      "id": "way/181731688"
    },
    {
      "type": "Feature",
      "properties": {
        "@id": "way/181731689",
        "highway": "trunk",
        "name": "Padang - Bukittinggi",
        "@geometry": "center"
      },
      "geometry": {
        "type": "Point",
        "coordinates": [
          100.2865271,
          -0.6682069
        ]
      },
      "id": "way/181731689"
    },
    {
      "type": "Feature",
      "properties": {
        "@id": "way/181994285",
        "bridge": "yes",
        "highway": "primary",
        "lanes": "2",
        "layer": "1",
        "maxspeed": "40",
        "name": "Jalan Adinegoro",
        "oneway": "yes",
        "source": "Bing",
        "surface": "asphalt",
        "@geometry": "center"
      },
      "geometry": {
        "type": "Point",
        "coordinates": [
          100.3281047,
          -0.8374849
        ]
      },
      "id": "way/181994285"
    },
    {
      "type": "Feature",
      "properties": {
        "@id": "way/181994286",
        "bridge": "yes",
        "highway": "primary",
        "lanes": "2",
        "layer": "1",
        "maxspeed": "40",
        "name": "Jalan Adinegoro",
        "oneway": "yes",
        "source": "Bing",
        "surface": "asphalt",
        "@geometry": "center"
      },
      "geometry": {
        "type": "Point",
        "coordinates": [
          100.3158524,
          -0.8043457
        ]
      },
      "id": "way/181994286"
    },
    {
      "type": "Feature",
      "properties": {
        "@id": "way/181994287",
        "highway": "primary",
        "lanes": "2",
        "name": "Jalan Profesor Dokter Hamka",
        "oneway": "yes",
        "@geometry": "center"
      },
      "geometry": {
        "type": "Point",
        "coordinates": [
          100.3510383,
          -0.9002657
        ]
      },
      "id": "way/181994287"
    },
    {
      "type": "Feature",
      "properties": {
        "@id": "way/181994291",
        "bridge": "yes",
        "highway": "primary",
        "layer": "1",
        "maxspeed": "40",
        "name": "Jalan Adinegoro",
        "oneway": "yes",
        "surface": "asphalt",
        "@geometry": "center"
      },
      "geometry": {
        "type": "Point",
        "coordinates": [
          100.343926,
          -0.8694518
        ]
      },
      "id": "way/181994291"
    },
    {
      "type": "Feature",
      "properties": {
        "@id": "way/181994299",
        "highway": "primary",
        "lanes": "2",
        "maxspeed": "40",
        "name": "Jalan Adinegoro",
        "oneway": "yes",
        "smoothness": "intermediate",
        "surface": "asphalt",
        "width": "10",
        "@geometry": "center"
      },
      "geometry": {
        "type": "Point",
        "coordinates": [
          100.3217109,
          -0.8209323
        ]
      },
      "id": "way/181994299"
    },
    {
      "type": "Feature",
      "properties": {
        "@id": "way/181994302",
        "highway": "primary",
        "lanes": "2",
        "maxspeed": "40",
        "name": "Jalan Adinegoro",
        "oneway": "yes",
        "surface": "asphalt",
        "@geometry": "center"
      },
      "geometry": {
        "type": "Point",
        "coordinates": [
          100.3157164,
          -0.7983487
        ]
      },
      "id": "way/181994302"
    },
    {
      "type": "Feature",
      "properties": {
        "@id": "way/181994303",
        "highway": "primary",
        "lanes": "2",
        "maxspeed": "40",
        "name": "Jalan Adinegoro",
        "oneway": "yes",
        "surface": "asphalt",
        "@geometry": "center"
      },
      "geometry": {
        "type": "Point",
        "coordinates": [
          100.3339566,
          -0.8493325
        ]
      },
      "id": "way/181994303"
    },
    {
      "type": "Feature",
      "properties": {
        "@id": "way/182139739",
        "highway": "tertiary",
        "name": "Jalan Bandar Purus",
        "source": "digitalglobe",
        "surface": "concrete",
        "@geometry": "center"
      },
      "geometry": {
        "type": "Point",
        "coordinates": [
          100.3582607,
          -0.9594669
        ]
      },
      "id": "way/182139739"
    },
    {
      "type": "Feature",
      "properties": {
        "@id": "way/182139740",
        "highway": "tertiary",
        "name": "Jalan Bandar Belakang Tangsi",
        "oneway": "yes",
        "source": "digitalglobe",
        "surface": "concrete",
        "@geometry": "center"
      },
      "geometry": {
        "type": "Point",
        "coordinates": [
          100.3575429,
          -0.9537068
        ]
      },
      "id": "way/182139740"
    },
    {
      "type": "Feature",
      "properties": {
        "@id": "way/183101464",
        "alt_name": "Jalan Lima Kaum",
        "highway": "primary",
        "name": "Jalan Sudirman",
        "surface": "asphalt",
        "@geometry": "center"
      },
      "geometry": {
        "type": "Point",
        "coordinates": [
          100.5694072,
          -0.4615282
        ]
      },
      "id": "way/183101464"
    },
    {
      "type": "Feature",
      "properties": {
        "@id": "way/183951238",
        "highway": "primary",
        "name": "Jalan Ayani",
        "@geometry": "center"
      },
      "geometry": {
        "type": "Point",
        "coordinates": [
          100.5845105,
          -0.4592084
        ]
      },
      "id": "way/183951238"
    },
    {
      "type": "Feature",
      "properties": {
        "@id": "way/183952950",
        "highway": "secondary",
        "name": "Jalan Soetoyo",
        "@geometry": "center"
      },
      "geometry": {
        "type": "Point",
        "coordinates": [
          100.5940693,
          -0.4532385
        ]
      },
      "id": "way/183952950"
    },
    {
      "type": "Feature",
      "properties": {
        "@id": "way/183954349",
        "highway": "secondary",
        "name": "Jalan Jati",
        "@geometry": "center"
      },
      "geometry": {
        "type": "Point",
        "coordinates": [
          100.5945235,
          -0.4576301
        ]
      },
      "id": "way/183954349"
    },
    {
      "type": "Feature",
      "properties": {
        "@id": "way/183954352",
        "highway": "secondary",
        "name": "Jalan Suprapto",
        "@geometry": "center"
      },
      "geometry": {
        "type": "Point",
        "coordinates": [
          100.5957949,
          -0.456006
        ]
      },
      "id": "way/183954352"
    },
    {
      "type": "Feature",
      "properties": {
        "@id": "way/183956284",
        "highway": "secondary",
        "name": "Jalan Koto Piliang",
        "@geometry": "center"
      },
      "geometry": {
        "type": "Point",
        "coordinates": [
          100.5983217,
          -0.4540965
        ]
      },
      "id": "way/183956284"
    },
    {
      "type": "Feature",
      "properties": {
        "@id": "way/184098960",
        "bridge": "yes",
        "bridge_name": "Pincuran 7",
        "highway": "primary",
        "layer": "1",
        "name": "Jembatan Pincuran 7",
        "@geometry": "center"
      },
      "geometry": {
        "type": "Point",
        "coordinates": [
          100.5849982,
          -0.4590634
        ]
      },
      "id": "way/184098960"
    },
    {
      "type": "Feature",
      "properties": {
        "@id": "way/184100769",
        "highway": "secondary",
        "name": "Jalan S.A. Bagagarsyah",
        "@geometry": "center"
      },
      "geometry": {
        "type": "Point",
        "coordinates": [
          100.5970566,
          -0.4527906
        ]
      },
      "id": "way/184100769"
    },
    {
      "type": "Feature",
      "properties": {
        "@id": "way/184101607",
        "highway": "secondary",
        "name": "Jalan S.A. Bagagarsyah",
        "@geometry": "center"
      },
      "geometry": {
        "type": "Point",
        "coordinates": [
          100.602565,
          -0.4544869
        ]
      },
      "id": "way/184101607"
    },
    {
      "type": "Feature",
      "properties": {
        "@id": "way/184101914",
        "highway": "secondary",
        "name": "Jalan S.A. Bagagarsyah",
        "@geometry": "center"
      },
      "geometry": {
        "type": "Point",
        "coordinates": [
          100.6245143,
          -0.4816413
        ]
      },
      "id": "way/184101914"
    },
    {
      "type": "Feature",
      "properties": {
        "@id": "way/184102217",
        "highway": "secondary",
        "name": "Jalan S.A. Bagagarsyah",
        "@geometry": "center"
      },
      "geometry": {
        "type": "Point",
        "coordinates": [
          100.6104282,
          -0.4606778
        ]
      },
      "id": "way/184102217"
    },
    {
      "type": "Feature",
      "properties": {
        "@id": "way/184102325",
        "highway": "secondary",
        "name": "Jalan Raya Bukit Gombak",
        "@geometry": "center"
      },
      "geometry": {
        "type": "Point",
        "coordinates": [
          100.6081063,
          -0.4742361
        ]
      },
      "id": "way/184102325"
    },
    {
      "type": "Feature",
      "properties": {
        "@id": "way/184102518",
        "highway": "secondary",
        "name": "Jalan Raya Bukit Gombak",
        "@geometry": "center"
      },
      "geometry": {
        "type": "Point",
        "coordinates": [
          100.624329,
          -0.4889254
        ]
      },
      "id": "way/184102518"
    },
    {
      "type": "Feature",
      "properties": {
        "@id": "way/184104130",
        "highway": "tertiary",
        "name": "Jalan S.A. Bagagarsyah",
        "oneway": "yes",
        "@geometry": "center"
      },
      "geometry": {
        "type": "Point",
        "coordinates": [
          100.6250406,
          -0.4767997
        ]
      },
      "id": "way/184104130"
    },
    {
      "type": "Feature",
      "properties": {
        "@id": "way/184104131",
        "highway": "tertiary",
        "name": "Jalan S.A. Bagagarsyah",
        "oneway": "yes",
        "@geometry": "center"
      },
      "geometry": {
        "type": "Point",
        "coordinates": [
          100.6250534,
          -0.4768581
        ]
      },
      "id": "way/184104131"
    },
    {
      "type": "Feature",
      "properties": {
        "@id": "way/184106850",
        "bridge": "yes",
        "highway": "secondary",
        "layer": "1",
        "name": "Jembatan Bukit Gombak",
        "@geometry": "center"
      },
      "geometry": {
        "type": "Point",
        "coordinates": [
          100.6211468,
          -0.4877216
        ]
      },
      "id": "way/184106850"
    },
    {
      "type": "Feature",
      "properties": {
        "@id": "way/196526460",
        "highway": "primary",
        "name": "Jalan Lintas Simpang Tiga",
        "oneway": "no",
        "source": "bing",
        "@geometry": "center"
      },
      "geometry": {
        "type": "Point",
        "coordinates": [
          99.8163049,
          0.0509258
        ]
      },
      "id": "way/196526460"
    },
    {
      "type": "Feature",
      "properties": {
        "@id": "way/196948538",
        "bridge": "yes",
        "highway": "primary",
        "layer": "1",
        "name": "Jalan S. Parman",
        "source": "digitalglobe",
        "@geometry": "center"
      },
      "geometry": {
        "type": "Point",
        "coordinates": [
          100.3503391,
          -0.9174916
        ]
      },
      "id": "way/196948538"
    },
    {
      "type": "Feature",
      "properties": {
        "@id": "way/196948539",
        "highway": "primary",
        "name": "Jalan S. Parman",
        "oneway": "no",
        "source": "digitalglobe",
        "@geometry": "center"
      },
      "geometry": {
        "type": "Point",
        "coordinates": [
          100.350114,
          -0.9143925
        ]
      },
      "id": "way/196948539"
    },
    {
      "type": "Feature",
      "properties": {
        "@id": "way/196950330",
        "bridge": "yes",
        "highway": "secondary",
        "layer": "1",
        "name": "Jalan S.A. Bagagarsyah",
        "@geometry": "center"
      },
      "geometry": {
        "type": "Point",
        "coordinates": [
          100.6057496,
          -0.45597
        ]
      },
      "id": "way/196950330"
    },
    {
      "type": "Feature",
      "properties": {
        "@id": "way/196951979",
        "highway": "tertiary",
        "maxspeed": "40",
        "name": "Jalan Tanjung Alam - Kapau",
        "surface": "asphalt",
        "@geometry": "center"
      },
      "geometry": {
        "type": "Point",
        "coordinates": [
          100.4089796,
          -0.2828279
        ]
      },
      "id": "way/196951979"
    },
    {
      "type": "Feature",
      "properties": {
        "@id": "way/197121831",
        "highway": "secondary",
        "lanes": "1",
        "name": "Jalan Gajah Mada",
        "oneway": "no",
        "source": "bing",
        "surface": "asphalt",
        "@geometry": "center"
      },
      "geometry": {
        "type": "Point",
        "coordinates": [
          99.4199245,
          0.2322094
        ]
      },
      "id": "way/197121831"
    },
    {
      "type": "Feature",
      "properties": {
        "@id": "way/197153487",
        "highway": "primary",
        "name": "Jalan Lintas Sumatera",
        "@geometry": "center"
      },
      "geometry": {
        "type": "Point",
        "coordinates": [
          99.9395692,
          -0.4064712
        ]
      },
      "id": "way/197153487"
    },
    {
      "type": "Feature",
      "properties": {
        "@id": "way/197181589",
        "highway": "primary",
        "name": "Jalan Lintas Barat Sumatera",
        "source": "bing",
        "@geometry": "center"
      },
      "geometry": {
        "type": "Point",
        "coordinates": [
          99.405598,
          0.4052947
        ]
      },
      "id": "way/197181589"
    },
    {
      "type": "Feature",
      "properties": {
        "@id": "way/197181594",
        "highway": "primary",
        "name": "Jalan Lintas Barat Sumatera",
        "source": "bing",
        "@geometry": "center"
      },
      "geometry": {
        "type": "Point",
        "coordinates": [
          99.4439003,
          0.3319812
        ]
      },
      "id": "way/197181594"
    },
    {
      "type": "Feature",
      "properties": {
        "@id": "way/197181606",
        "highway": "primary",
        "name": "Jalan Lintas Barat Sumatera",
        "source": "bing",
        "@geometry": "center"
      },
      "geometry": {
        "type": "Point",
        "coordinates": [
          99.3856011,
          0.4288675
        ]
      },
      "id": "way/197181606"
    },
    {
      "type": "Feature",
      "properties": {
        "@id": "way/197350923",
        "highway": "trunk",
        "name": "Padang - Bukittinggi",
        "@geometry": "center"
      },
      "geometry": {
        "type": "Point",
        "coordinates": [
          100.3198474,
          -0.5519465
        ]
      },
      "id": "way/197350923"
    },
    {
      "type": "Feature",
      "properties": {
        "@id": "way/197350924",
        "bridge": "yes",
        "highway": "trunk",
        "layer": "1",
        "name": "Padang - Bukittinggi",
        "source": "bing",
        "@geometry": "center"
      },
      "geometry": {
        "type": "Point",
        "coordinates": [
          100.2999436,
          -0.5500582
        ]
      },
      "id": "way/197350924"
    },
    {
      "type": "Feature",
      "properties": {
        "@id": "way/197350925",
        "bridge": "yes",
        "highway": "trunk",
        "layer": "1",
        "name": "Padang - Bukittinggi",
        "source": "bing",
        "@geometry": "center"
      },
      "geometry": {
        "type": "Point",
        "coordinates": [
          100.3091434,
          -0.5516816
        ]
      },
      "id": "way/197350925"
    },
    {
      "type": "Feature",
      "properties": {
        "@id": "way/197350926",
        "bridge": "yes",
        "highway": "trunk",
        "layer": "1",
        "name": "Padang - Bukittinggi",
        "@geometry": "center"
      },
      "geometry": {
        "type": "Point",
        "coordinates": [
          100.3272583,
          -0.552703
        ]
      },
      "id": "way/197350926"
    },
    {
      "type": "Feature",
      "properties": {
        "@id": "way/197350927",
        "highway": "trunk",
        "name": "Padang - Bukittinggi",
        "@geometry": "center"
      },
      "geometry": {
        "type": "Point",
        "coordinates": [
          100.3322776,
          -0.5480803
        ]
      },
      "id": "way/197350927"
    },
    {
      "type": "Feature",
      "properties": {
        "@id": "way/197350929",
        "highway": "trunk",
        "name": "Padang - Bukittinggi",
        "source": "bing",
        "@geometry": "center"
      },
      "geometry": {
        "type": "Point",
        "coordinates": [
          100.304591,
          -0.5507403
        ]
      },
      "id": "way/197350929"
    },
    {
      "type": "Feature",
      "properties": {
        "@id": "way/197350955",
        "highway": "trunk",
        "name": "Jalan Padang Panjang - Bukittinggi",
        "source": "DigitalGlobe",
        "surface": "asphalt",
        "@geometry": "center"
      },
      "geometry": {
        "type": "Point",
        "coordinates": [
          100.399941,
          -0.410213
        ]
      },
      "id": "way/197350955"
    },
    {
      "type": "Feature",
      "properties": {
        "@id": "way/197358409",
        "highway": "trunk",
        "lanes": "2",
        "name": "Jalan Raya Indarung",
        "oneway": "yes",
        "source": "digitalglobe",
        "@geometry": "center"
      },
      "geometry": {
        "type": "Point",
        "coordinates": [
          100.4479342,
          -0.9517356
        ]
      },
      "id": "way/197358409"
    },
    {
      "type": "Feature",
      "properties": {
        "@id": "way/197358410",
        "bridge": "yes",
        "highway": "trunk",
        "lanes": "2",
        "layer": "1",
        "name": "Jalan Raya Indarung",
        "oneway": "yes",
        "source": "bing",
        "@geometry": "center"
      },
      "geometry": {
        "type": "Point",
        "coordinates": [
          100.44198,
          -0.9498936
        ]
      },
      "id": "way/197358410"
    },
    {
      "type": "Feature",
      "properties": {
        "@id": "way/197358411",
        "bridge": "yes",
        "highway": "trunk",
        "lanes": "2",
        "layer": "1",
        "name": "Jalan Raya Indarung",
        "oneway": "yes",
        "source": "bing",
        "@geometry": "center"
      },
      "geometry": {
        "type": "Point",
        "coordinates": [
          100.4330342,
          -0.9497105
        ]
      },
      "id": "way/197358411"
    },
    {
      "type": "Feature",
      "properties": {
        "@id": "way/197358412",
        "bridge": "yes",
        "highway": "trunk",
        "lanes": "2",
        "layer": "1",
        "name": "Jalan Raya Indarung",
        "oneway": "yes",
        "source": "digitalglobe",
        "@geometry": "center"
      },
      "geometry": {
        "type": "Point",
        "coordinates": [
          100.4537721,
          -0.9533362
        ]
      },
      "id": "way/197358412"
    },
    {
      "type": "Feature",
      "properties": {
        "@id": "way/197358413",
        "highway": "trunk",
        "lanes": "2",
        "name": "Jalan Raya Indarung",
        "source": "digitalglobe",
        "@geometry": "center"
      },
      "geometry": {
        "type": "Point",
        "coordinates": [
          100.5191088,
          -0.9451596
        ]
      },
      "id": "way/197358413"
    },
    {
      "type": "Feature",
      "properties": {
        "@id": "way/197358414",
        "highway": "trunk",
        "lanes": "2",
        "name": "Jalan Raya Indarung",
        "oneway": "yes",
        "source": "digitalglobe",
        "@geometry": "center"
      },
      "geometry": {
        "type": "Point",
        "coordinates": [
          100.4374918,
          -0.9494968
        ]
      },
      "id": "way/197358414"
    },
    {
      "type": "Feature",
      "properties": {
        "@id": "way/197358424",
        "highway": "tertiary",
        "name": "Jalan Sungai Balang",
        "source": "bing",
        "@geometry": "center"
      },
      "geometry": {
        "type": "Point",
        "coordinates": [
          100.4363096,
          -0.9471964
        ]
      },
      "id": "way/197358424"
    },
    {
      "type": "Feature",
      "properties": {
        "@id": "way/197501070",
        "highway": "secondary",
        "lanes": "1",
        "name": "Jalan Bung Tomo",
        "smoothness": "good",
        "surface": "asphalt",
        "width": "6",
        "@geometry": "center"
      },
      "geometry": {
        "type": "Point",
        "coordinates": [
          100.143354,
          -0.6564918
        ]
      },
      "id": "way/197501070"
    },
    {
      "type": "Feature",
      "properties": {
        "@id": "way/197952506",
        "highway": "trunk",
        "layer": "1",
        "name": "Jalan Raya Air Haji - Muko Muko",
        "note": "Lintas Barat Sumatra",
        "source": "GPS;Bing",
        "surface": "asphalt",
        "@geometry": "center"
      },
      "geometry": {
        "type": "Point",
        "coordinates": [
          101.0500532,
          -2.1005468
        ]
      },
      "id": "way/197952506"
    },
    {
      "type": "Feature",
      "properties": {
        "@id": "way/197955945",
        "highway": "trunk",
        "lanes": "4",
        "name": "Jalan Raya Indarung-Solok",
        "source": "digitalglobe",
        "@geometry": "center"
      },
      "geometry": {
        "type": "Point",
        "coordinates": [
          100.5401614,
          -0.9426447
        ]
      },
      "id": "way/197955945"
    },
    {
      "type": "Feature",
      "properties": {
        "@id": "way/197955946",
        "highway": "trunk",
        "lanes": "4",
        "name": "Jalan Lintas Sumatera",
        "source": "digitalglobe",
        "@geometry": "center"
      },
      "geometry": {
        "type": "Point",
        "coordinates": [
          100.6525799,
          -0.8128731
        ]
      },
      "id": "way/197955946"
    },
    {
      "type": "Feature",
      "properties": {
        "@id": "way/197955947",
        "bridge": "yes",
        "highway": "trunk",
        "lanes": "4",
        "layer": "1",
        "name": "Jalan Raya Indarung",
        "source": "digitalglobe",
        "@geometry": "center"
      },
      "geometry": {
        "type": "Point",
        "coordinates": [
          100.6547183,
          -0.8193339
        ]
      },
      "id": "way/197955947"
    },
    {
      "type": "Feature",
      "properties": {
        "@id": "way/197955948",
        "highway": "trunk",
        "lanes": "4",
        "name": "Jalan Raya Indarung",
        "source": "digitalglobe",
        "@geometry": "center"
      },
      "geometry": {
        "type": "Point",
        "coordinates": [
          100.5820089,
          -0.9598462
        ]
      },
      "id": "way/197955948"
    },
    {
      "type": "Feature",
      "properties": {
        "@id": "way/197955952",
        "highway": "trunk",
        "name": "Jalan Lintas Sumatera",
        "source": "digitalglobe",
        "@geometry": "center"
      },
      "geometry": {
        "type": "Point",
        "coordinates": [
          100.6391638,
          -0.8976263
        ]
      },
      "id": "way/197955952"
    },
    {
      "type": "Feature",
      "properties": {
        "@id": "way/197955959",
        "highway": "trunk",
        "maxspeed": "80",
        "name": "Jalan Lintas Sumatera",
        "oneway": "no",
        "@geometry": "center"
      },
      "geometry": {
        "type": "Point",
        "coordinates": [
          100.1078654,
          0.2655886
        ]
      },
      "id": "way/197955959"
    },
    {
      "type": "Feature",
      "properties": {
        "@id": "way/198683039",
        "highway": "tertiary",
        "name": "Jalan Ulu Gadut",
        "oneway": "no",
        "surface": "asphalt",
        "@geometry": "center"
      },
      "geometry": {
        "type": "Point",
        "coordinates": [
          100.4536669,
          -0.9461877
        ]
      },
      "id": "way/198683039"
    },
    {
      "type": "Feature",
      "properties": {
        "@id": "way/198707204",
        "highway": "tertiary",
        "name": "Jalan Kampus Unand",
        "note": "DigitalGlobe",
        "oneway": "no",
        "@geometry": "center"
      },
      "geometry": {
        "type": "Point",
        "coordinates": [
          100.4598922,
          -0.9113942
        ]
      },
      "id": "way/198707204"
    },
    {
      "type": "Feature",
      "properties": {
        "@id": "way/198707962",
        "highway": "tertiary",
        "name": "Jalan Kampus Unand",
        "oneway": "yes",
        "@geometry": "center"
      },
      "geometry": {
        "type": "Point",
        "coordinates": [
          100.4579389,
          -0.9180919
        ]
      },
      "id": "way/198707962"
    },
    {
      "type": "Feature",
      "properties": {
        "@id": "way/198716487",
        "highway": "tertiary",
        "name": "Jalan Ulu Gadut",
        "@geometry": "center"
      },
      "geometry": {
        "type": "Point",
        "coordinates": [
          100.4795507,
          -0.937387
        ]
      },
      "id": "way/198716487"
    },
    {
      "type": "Feature",
      "properties": {
        "@id": "way/198870632",
        "highway": "tertiary",
        "name": "Jalan Limau Manis",
        "source": "bing",
        "@geometry": "center"
      },
      "geometry": {
        "type": "Point",
        "coordinates": [
          100.450817,
          -0.9341339
        ]
      },
      "id": "way/198870632"
    },
    {
      "type": "Feature",
      "properties": {
        "@id": "way/198870968",
        "highway": "tertiary",
        "name": "Jalan SMA 9",
        "@geometry": "center"
      },